Timestamp,Accel_X,Accel_Y,Accel_Z,Roll,Pitch,Yaw,GravAcc_X,GravAcc_Y,GravAcc_Z,UserAcc_X,UserAcc_Y,UserAcc_Z,RotRate_X,RotRate_Y,RotRate_Z,MagHeading,TrueHeading,HeadingAccuracy,Lat,Long,LocAccuracy,Course,Speed,Altitude
462463448.472710,-0.068008,-0.404388,-0.785736,0.113618,0.297445,-2.271131,0.108395,-0.293079,-0.949924,-0.002606,0.187793,0.029590,0.263954,-0.305208,0.154790,259.579834,260.676544,-1.000000,28.710226,77.206876,5.000000,269.625519,5.050000,206.580078
462463448.505673,-0.019913,-0.410049,-0.861511,0.113618,0.297445,-2.271131,0.108395,-0.293079,-0.949924,-0.002606,0.187793,0.029590,0.263954,-0.305208,0.154790,259.579834,260.676544,-1.000000,28.710257,77.206732,5.000000,270.703125,0.000000,200.770264
462463448.539336,-0.058090,-0.410751,-0.940292,0.113618,0.297445,-2.271131,0.108395,-0.293079,-0.949924,-0.002606,0.187793,0.029590,0.263954,-0.305208,0.154790,259.579834,260.676544,-1.000000,28.710257,77.206732,5.000000,270.703125,0.000000,200.770264
462463448.572821,-0.107071,-0.377441,-1.033630,0.113618,0.297445,-2.271131,0.108395,-0.293079,-0.949924,-0.002606,0.187793,0.029590,0.263954,-0.305208,0.154790,259.579834,260.676544,-1.000000,28.710257,77.206732,5.000000,270.703125,0.000000,200.770264
462463448.605814,-0.032379,-0.399216,-1.109940,0.113618,0.297445,-2.271131,0.108395,-0.293079,-0.949924,-0.002606,0.187793,0.029590,0.263954,-0.305208,0.154790,259.579834,260.676544,-1.000000,28.710868,77.207756,575.653072,-1.000000,-1.000000,200.770264
462463448.639666,-0.183685,-0.343414,-1.151215,0.113618,0.297445,-2.271131,0.108395,-0.293079,-0.949924,-0.002606,0.187793,0.029590,0.263954,-0.305208,0.154790,259.579834,260.676544,-1.000000,28.711317,77.208510,575.653121,-1.000000,-1.000000,200.770264
462463448.672672,-0.366486,-0.237885,-1.235229,0.113618,0.297445,-2.271131,0.108395,-0.293079,-0.949924,-0.002606,0.187793,0.029590,0.263954,-0.305208,0.154790,259.579834,260.676544,-1.000000,28.711317,77.208510,575.653121,-1.000000,-1.000000,200.770264
462463448.706004,-0.170578,-0.182556,-1.335251,-0.086548,0.475684,0.022223,-0.076843,-0.457946,-0.885652,-0.175339,0.248199,-0.446150,0.370152,0.077181,0.194738,259.579834,260.676544,-1.000000,28.711317,77.208510,575.653121,-1.000000,-1.000000,200.770264
462463448.739434,-0.167114,-0.232422,-1.190170,-0.089765,0.487998,0.029442,-0.079180,-0.468859,-0.879717,-0.078306,0.269197,-0.389814,0.291554,-0.096232,0.061663,259.579834,260.676544,-1.000000,28.711317,77.208510,575.653121,-1.000000,-1.000000,200.770264
462463448.771956,-0.329712,-0.282486,-0.873550,-0.093094,0.487605,0.022809,-0.082126,-0.468511,-0.879632,-0.168072,0.201025,-0.134086,-0.214473,-0.221183,-0.315509,259.579834,260.676544,-1.000000,28.711317,77.208510,575.653121,-1.000000,-1.000000,200.770264
462463448.805982,-0.285477,-0.295090,-0.778412,-0.089135,0.483054,0.010871,-0.078832,-0.464486,-0.882065,-0.277202,0.177132,0.056214,-0.041687,0.117142,-0.244357,259.579834,260.676544,-1.000000,28.710256,77.206524,65.000000,-1.000000,-1.000000,201.005875
462463448.839347,-0.182449,-0.281982,-0.752792,-0.081124,0.491251,0.008305,-0.071452,-0.471729,-0.878843,-0.166982,0.183613,0.111098,0.419158,0.186380,0.006141,259.579834,260.676544,-1.000000,28.710256,77.206524,65.000000,-1.000000,-1.000000,201.005875
462463448.872634,-0.080811,-0.298599,-0.658905,-0.078635,0.502228,0.007963,-0.068853,-0.481379,-0.873804,-0.014627,0.185313,0.189005,-0.052323,0.065196,-0.102397,259.579834,260.676544,-1.000000,28.710256,77.206524,65.000000,-1.000000,-1.000000,201.005875
462463448.905978,-0.128952,-0.359375,-0.569824,-0.077640,0.502390,0.006971,-0.067978,-0.481521,-0.873794,-0.064179,0.137695,0.306869,0.107010,-0.048523,0.104919,259.579834,260.676544,-1.000000,28.710256,77.206524,65.000000,-1.000000,-1.000000,201.005875
462463448.939319,-0.092804,-0.364410,-0.633011,-0.085959,0.506629,0.016500,-0.075069,-0.485232,-0.871157,-0.017735,0.120822,0.238146,0.111534,-0.134711,0.281497,259.579834,260.676544,-1.000000,28.710256,77.206524,65.000000,-1.000000,-1.000000,201.005875
462463448.972623,-0.093063,-0.405014,-0.772171,-0.092951,0.505216,0.021647,-0.081221,-0.483996,-0.871293,0.021819,0.111712,0.127640,-0.102485,-0.176904,0.019196,259.579834,260.676544,-1.000000,28.710256,77.206524,65.000000,-1.000000,-1.000000,201.005875
462463449.006049,-0.237442,-0.443527,-0.889847,-0.098381,0.501024,0.014759,-0.086150,-0.480324,-0.872850,-0.084016,0.037133,0.053453,-0.178018,-0.297249,-0.281529,259.579834,260.676544,-1.000000,28.710256,77.206524,65.000000,-1.000000,-1.000000,201.005875
462463449.039307,-0.280334,-0.416702,-0.991791,-0.116013,0.489818,0.011393,-0.102142,-0.470466,-0.876487,-0.178192,0.053763,-0.115304,-0.233660,-0.016330,-0.273541,259.579834,260.676544,-1.000000,28.710256,77.206524,65.000000,-1.000000,-1.000000,201.005875
462463449.072652,-0.218887,-0.410034,-1.113312,-0.107143,0.484953,0.005034,-0.094607,-0.466167,-0.879624,-0.151166,0.058178,-0.210953,-0.105364,0.327804,-0.074684,293.989990,295.086700,25.000000,28.710256,77.206524,65.000000,-1.000000,-1.000000,201.005875
462463449.105272,-0.178329,-0.386230,-1.174805,-0.100222,0.484475,0.004185,-0.088540,-0.465744,-0.880479,-0.100363,0.059601,-0.248626,0.004283,0.430635,-0.030950,294.779114,295.875824,25.000000,28.710256,77.206524,65.000000,-1.000000,-1.000000,201.005875
462463449.139299,-0.164856,-0.414337,-1.169556,-0.080675,0.491398,0.004206,-0.071052,-0.471859,-0.878806,-0.103386,0.070782,-0.295327,0.200070,0.456835,-0.015074,294.301300,295.398010,25.000000,28.710256,77.206524,65.000000,-1.000000,-1.000000,201.005875
462463449.172744,-0.115921,-0.388840,-1.136551,-0.068280,0.496962,0.008933,-0.059974,-0.476757,-0.876987,-0.082146,0.077206,-0.269757,0.122671,0.345792,0.261168,293.974945,295.071655,25.000000,28.710256,77.206524,65.000000,-1.000000,-1.000000,201.005875
462463449.205954,0.113525,-0.403748,-1.138687,-0.084224,0.491020,0.024343,-0.074185,-0.471526,-0.878726,0.070828,0.058058,-0.256176,-0.363975,-0.741506,0.537910,292.846069,293.942780,25.000000,28.710256,77.206524,65.000000,-1.000000,-1.000000,201.005875
462463449.239309,-0.096222,-0.251495,-1.220001,-0.119138,0.477727,0.043201,-0.105549,-0.459762,-0.881747,0.202946,0.084990,-0.265134,-0.161014,-0.597576,0.544127,291.653412,292.750122,25.000000,28.710256,77.206524,65.000000,-1.000000,-1.000000,201.005875
462463449.272641,-0.173920,-0.244766,-1.285202,-0.131794,0.486963,0.069089,-0.116137,-0.467944,-0.876094,-0.029447,0.219393,-0.389928,0.722031,0.274939,0.816689,290.559753,291.656464,25.000000,28.710256,77.206524,65.000000,-1.000000,-1.000000,201.005875
462463449.305991,-0.041016,-0.207108,-1.164719,-0.143976,0.509755,0.107594,-0.125238,-0.487963,-0.863833,-0.018790,0.268481,-0.401334,0.761676,0.018904,0.933007,288.754517,289.851227,25.000000,28.710256,77.206524,65.000000,-1.000000,-1.000000,201.005875
462463449.339368,-0.058411,-0.234421,-0.880493,-0.162525,0.516148,0.137877,-0.140731,-0.493533,-0.858266,0.124099,0.276538,-0.243800,0.010312,-0.074788,0.682972,286.443359,287.540070,25.000000,28.710256,77.206524,65.000000,-1.000000,-1.000000,201.005875
462463449.372718,-0.102402,-0.227478,-0.797974,-0.168430,0.511476,0.160262,-0.146181,-0.489465,-0.859683,0.087771,0.255044,-0.020810,0.030312,0.321072,0.601099,285.658661,286.755371,25.000000,28.710256,77.206524,65.000000,-1.000000,-1.000000,201.005875
462463449.406057,-0.100677,-0.204269,-0.783890,-0.164983,0.515545,0.180043,-0.142889,-0.493009,-0.858210,0.029378,0.287671,0.055384,0.305097,0.389901,0.398768,284.386505,285.483215,25.000000,28.710256,77.206524,65.000000,-1.000000,-1.000000,201.005875
462463449.439244,-0.118607,-0.234726,-0.662842,-0.166321,0.527029,0.191480,-0.143091,-0.502968,-0.852378,0.031366,0.293785,0.097877,0.431397,-0.056110,0.183353,283.400940,284.497650,25.000000,28.710256,77.206524,65.000000,-1.000000,-1.000000,201.005875
462463449.472639,-0.070389,-0.263870,-0.628067,-0.178157,0.539246,0.201628,-0.152069,-0.513489,-0.844514,0.033462,0.278763,0.181672,0.380944,-0.260500,0.243565,283.281677,284.378387,25.000000,28.710256,77.206524,65.000000,-1.000000,-1.000000,201.005875
462463449.506121,-0.081635,-0.309708,-0.653534,-0.187411,0.545073,0.214884,-0.159317,-0.518481,-0.840117,0.108475,0.226840,0.210447,0.148245,0.177944,0.333801,281.599335,282.696045,25.000000,28.710256,77.206524,65.000000,-1.000000,-1.000000,201.005875
462463449.539284,-0.128311,-0.357681,-0.766769,-0.173601,0.544705,0.232227,-0.147733,-0.518166,-0.842425,0.014966,0.200997,0.138796,0.002788,0.538278,0.351059,280.882721,281.979431,25.000000,28.710256,77.206524,65.000000,-1.000000,-1.000000,201.005875
462463449.572631,-0.076172,-0.392853,-0.801117,-0.169209,0.546145,0.248048,-0.143906,-0.519397,-0.842329,0.035065,0.139880,0.053251,0.179500,0.256784,0.413777,279.479553,280.576263,25.000000,28.710256,77.206524,65.000000,-1.000000,-1.000000,201.005875
462463449.605965,-0.079285,-0.413559,-0.907455,-0.172334,0.546502,0.260981,-0.146506,-0.519702,-0.841692,0.095557,0.106387,-0.041273,-0.037544,0.048243,0.250712,279.413269,280.509979,25.000000,28.710256,77.206524,65.000000,-1.000000,-1.000000,201.005875
462463449.639319,-0.170319,-0.421692,-0.957123,-0.165724,0.526795,0.258075,-0.142601,-0.502765,-0.852580,0.007546,0.089435,-0.063009,-0.157450,-0.253951,0.008711,278.021973,279.118683,25.000000,28.710256,77.206524,65.000000,-1.000000,-1.000000,201.005875
462463449.672639,-0.173737,-0.433151,-1.026962,-0.172411,0.505037,0.253188,-0.150140,-0.483840,-0.862182,-0.020758,0.057631,-0.132783,-0.419525,-0.210701,-0.119174,277.620239,278.716949,25.000000,28.710256,77.206524,65.000000,-1.000000,-1.000000,201.005875
462463449.705969,-0.190933,-0.362381,-1.076508,-0.170789,0.493578,0.249982,-0.149674,-0.473780,-0.867831,-0.047347,0.073480,-0.180906,-0.333145,0.130221,0.048458,277.617828,278.714539,25.000000,28.710256,77.206524,65.000000,-1.000000,-1.000000,201.005875
462463449.739313,-0.084091,-0.377884,-1.139145,-0.171172,0.474596,0.244607,-0.151511,-0.456979,-0.876479,0.023948,0.096703,-0.264818,-0.864284,-0.196106,-0.145114,279.103973,280.200684,25.000000,28.710256,77.206524,65.000000,-1.000000,-1.000000,201.005875
462463449.772629,-0.216064,-0.245621,-1.114655,-0.170547,0.445683,0.226889,-0.153143,-0.431074,-0.889226,0.000753,0.130964,-0.229320,-0.855110,-0.207346,-0.397478,280.240936,281.337646,25.000000,28.710256,77.206524,65.000000,-1.000000,-1.000000,201.005875
462463449.805966,-0.219116,-0.172531,-1.229416,-0.170851,0.439186,0.218621,-0.153886,-0.425202,-0.891920,-0.104095,0.204240,-0.270982,0.263478,-0.108204,0.030994,280.653259,281.749969,25.000000,28.710256,77.206524,65.000000,-1.000000,-1.000000,201.005875
462463449.839405,-0.130814,-0.084106,-1.186646,-0.187967,0.454857,0.232912,-0.167863,-0.439334,-0.882501,-0.002959,0.280139,-0.363364,0.598818,-0.535774,0.442868,281.106903,282.203613,25.000000,28.710256,77.206524,65.000000,-1.000000,-1.000000,201.005875
462463449.872640,-0.157135,-0.093384,-1.046860,-0.226686,0.479209,0.260029,-0.199434,-0.461077,-0.864658,0.042299,0.367694,-0.182202,0.605358,-0.403083,0.251271,281.203125,282.299835,25.000000,28.710256,77.206524,65.000000,-1.000000,-1.000000,201.005875
462463449.905993,-0.218262,-0.144089,-0.868515,-0.237826,0.490917,0.273655,-0.207767,-0.471435,-0.857077,-0.010494,0.327346,-0.011438,0.302970,0.027304,0.381315,281.513611,282.610321,25.000000,28.710256,77.206524,65.000000,-1.000000,-1.000000,201.005875
462463449.939402,-0.064682,-0.177475,-0.705688,-0.246927,0.492761,0.300537,-0.215346,-0.473060,-0.854307,0.097823,0.304847,0.105482,0.249765,0.109186,0.947407,281.134552,282.231262,25.000000,28.710256,77.206524,65.000000,-1.000000,-1.000000,201.005875
462463449.972702,0.013992,-0.232574,-0.630997,-0.255550,0.493546,0.320953,-0.222611,-0.473752,-0.852059,0.195527,0.291760,0.183678,0.365167,0.045710,1.105085,279.647095,280.743805,25.000000,28.710256,77.206524,65.000000,-1.000000,-1.000000,201.005875
462463450.006078,-0.083130,-0.276505,-0.639099,-0.278220,0.495776,0.377948,-0.241577,-0.475714,-0.845776,0.213272,0.219992,0.206204,0.170722,0.182677,0.855789,278.288391,279.385101,25.000000,28.710256,77.206524,65.000000,-1.000000,-1.000000,201.005875
462463450.039431,-0.185379,-0.383179,-0.598648,-0.281604,0.489885,0.406541,-0.245213,-0.470524,-0.847630,0.059880,0.126042,0.251943,-0.029520,0.383237,0.785159,276.461304,277.558014,25.000000,28.710256,77.206524,65.000000,-1.000000,-1.000000,201.005875
462463450.072702,-0.165192,-0.481247,-0.673355,-0.286430,0.481717,0.433994,-0.250378,-0.463302,-0.850096,0.072186,0.031875,0.222883,-0.001352,0.070156,0.783614,274.229828,275.326538,25.000000,28.710256,77.206524,65.000000,-1.000000,-1.000000,201.005875
462463450.106050,-0.145264,-0.521240,-0.702606,-0.306711,0.480622,0.461985,-0.267719,-0.462331,-0.845327,0.114536,-0.041103,0.157704,0.361077,-0.376219,0.696889,273.434570,274.531281,25.000000,28.710256,77.206524,65.000000,-1.000000,-1.000000,201.005875
462463450.139442,-0.203415,-0.565308,-0.825760,-0.336839,0.489923,0.487418,-0.291628,-0.470558,-0.832783,0.140398,-0.089256,0.075551,0.528195,-0.691146,0.473159,272.326202,273.422913,25.000000,28.710256,77.206524,65.000000,-1.000000,-1.000000,201.005875
462463450.172811,-0.236420,-0.572006,-0.880676,-0.372612,0.502753,0.508175,-0.319002,-0.481840,-0.816130,0.077074,-0.089861,-0.044527,0.627926,-0.850599,0.347408,272.118835,273.215546,25.000000,28.710256,77.206524,65.000000,-1.000000,-1.000000,201.005875
462463450.205994,-0.231689,-0.555374,-0.933273,-0.413242,0.518986,0.532200,-0.348701,-0.496000,-0.795230,0.119591,-0.033251,-0.060391,0.839248,-0.845694,0.520997,271.862579,272.959290,25.000000,28.710256,77.206524,65.000000,-1.000000,-1.000000,201.005875
462463450.239418,-0.201797,-0.510742,-1.018921,-0.457017,0.540587,0.561132,-0.378351,-0.514639,-0.769413,0.136697,-0.021310,-0.201381,1.093976,-0.952279,0.541086,270.931824,272.028534,25.000000,28.710256,77.206524,65.000000,-1.000000,-1.000000,201.005875
462463450.272787,-0.277832,-0.419144,-0.895279,-0.512126,0.566336,0.606783,-0.413524,-0.536544,-0.735608,0.078532,0.070159,-0.296543,1.517675,-1.089413,0.725035,270.186462,271.283173,25.000000,28.710256,77.206524,65.000000,-1.000000,-1.000000,201.005875
462463450.306114,-0.215332,-0.406967,-0.886017,-0.597542,0.601324,0.669534,-0.463923,-0.565735,-0.681704,0.214884,0.154297,-0.170576,1.760185,-2.133882,0.909321,270.060272,271.156982,25.000000,28.710256,77.206524,65.000000,-1.000000,-1.000000,201.005875
462463450.339427,-0.175278,-0.297836,-0.641266,-0.737054,0.618718,0.735119,-0.547516,-0.579992,-0.603188,0.362533,0.181310,-0.192420,1.195333,-3.583679,1.036573,269.174225,270.270935,25.000000,28.710256,77.206524,65.000000,-1.000000,-1.000000,201.005875
462463450.372781,-0.333832,-0.150864,-0.424042,-0.905340,0.615147,0.810237,-0.642436,-0.577079,-0.504238,0.458583,0.336463,-0.058170,1.755196,-3.994949,1.473181,267.376892,268.473602,25.000000,28.710256,77.206524,65.000000,-1.000000,-1.000000,201.005875
462463450.406101,-0.348282,-0.172272,-0.582428,-1.081228,0.616425,0.918140,-0.720106,-0.578122,-0.383697,0.386274,0.427258,-0.040345,2.225677,-3.247075,1.726751,265.784271,266.880981,25.000000,28.710256,77.206524,65.000000,-1.000000,-1.000000,201.005875
462463450.439444,-0.171265,-0.228455,-0.444946,-1.222832,0.567957,0.986137,-0.792480,-0.537911,-0.287451,0.382094,0.405175,-0.203150,0.188058,-2.759499,2.126011,264.427734,265.524445,25.000000,28.710256,77.206524,65.000000,-1.000000,-1.000000,201.005875
462463450.472779,-0.909439,-0.230209,-0.336533,-1.275903,0.501402,1.001901,-0.839056,-0.480656,-0.254863,0.535666,0.292194,-0.067387,-0.244936,-0.734599,1.984182,261.591919,262.688629,25.000000,28.710256,77.206524,65.000000,-1.000000,-1.000000,201.005875
462463450.506203,-1.062988,-0.256393,-0.698547,-1.255348,0.462931,1.005926,-0.850598,-0.446572,-0.277589,-0.058841,0.216363,-0.058943,-0.568431,1.873678,0.667368,258.022675,259.119385,25.000000,28.710256,77.206524,65.000000,-1.000000,-1.000000,201.005875
462463450.539417,-1.023254,-0.494003,-0.624680,-1.086505,0.413229,0.941712,-0.810513,-0.401569,-0.426393,-0.472690,-0.096692,-0.277633,-1.573234,2.703877,0.616036,257.605957,258.702667,25.000000,28.710256,77.206524,65.000000,-1.000000,-1.000000,201.005875
462463450.572771,-0.738083,-0.253311,-0.760773,-1.018880,0.392180,0.940718,-0.786872,-0.382204,-0.484513,-0.049889,0.023592,-0.034439,0.541085,1.638780,0.373182,255.574554,256.671265,25.000000,28.710256,77.206524,65.000000,-1.000000,-1.000000,201.005875
462463450.606098,-0.770432,-0.375900,-0.939285,-1.001747,0.400993,0.968842,-0.775588,-0.390332,-0.496088,0.005157,0.014432,-0.443197,0.724977,0.625752,0.199237,253.963211,255.059921,25.000000,28.710256,77.206524,65.000000,-1.000000,-1.000000,201.005875
462463450.639440,-0.724319,-0.474045,-0.842285,-0.970363,0.403207,0.985885,-0.758925,-0.392370,-0.519691,0.013960,-0.140757,-0.376213,0.193652,1.459249,0.020947,253.253922,254.350632,25.000000,28.710256,77.206524,65.000000,-1.000000,-1.000000,201.005875
462463450.672717,-0.823166,-0.469070,-0.767960,-0.917665,0.413042,0.982875,-0.727397,-0.401397,-0.556573,-0.026295,-0.047577,-0.215095,0.134315,1.606540,-0.472646,251.455444,252.552155,25.000000,28.710256,77.206524,65.000000,-1.000000,-1.000000,201.005875
462463450.706100,-0.716339,-0.455490,-0.783493,-0.876221,0.432693,0.973755,-0.697517,-0.419317,-0.581071,-0.112252,-0.071558,-0.200423,0.187144,0.678170,-0.738631,251.392380,252.489090,25.000000,28.710256,77.206524,65.000000,-1.000000,-1.000000,201.005875
462463450.739009,-0.632065,-0.452393,-0.716736,-0.865197,0.453115,0.962316,-0.684406,-0.437768,-0.583050,0.032352,-0.041648,-0.157398,0.189578,-0.077890,-0.532222,251.799866,252.896576,25.000000,28.710256,77.206524,65.000000,-1.000000,-1.000000,201.005875
462463450.772798,-0.651489,-0.342941,-0.704376,-0.861920,0.465286,0.955973,-0.678397,-0.448678,-0.581778,0.033347,0.042810,-0.138346,0.001801,-0.116796,-0.396626,252.960037,254.056747,25.000000,28.710256,77.206524,65.000000,-1.000000,-1.000000,201.005875
462463450.806100,-0.711472,-0.355011,-0.600967,-0.871550,0.459966,0.935672,-0.685785,-0.443918,-0.576745,0.011667,0.104273,-0.114813,-0.397082,-1.659159,-0.241530,253.701477,254.798187,25.000000,28.710256,77.206524,65.000000,-1.000000,-1.000000,201.005875
462463450.839403,-0.757172,-0.348190,-0.512726,-0.943958,0.449012,0.925021,-0.729607,-0.434076,-0.528442,0.018136,0.079065,-0.072525,-0.389082,-2.752296,0.274522,254.579422,255.676132,25.000000,28.710256,77.206524,65.000000,-1.000000,-1.000000,201.005875
462463450.872793,-0.958069,-0.350723,-0.541946,-1.125955,0.422510,0.922429,-0.823300,-0.410051,-0.392474,-0.061359,0.063631,-0.139966,-0.107293,-4.176607,0.379948,256.084076,257.180786,25.000000,28.710256,77.206524,65.000000,-1.000000,-1.000000,201.005875
462463450.906101,-1.174225,-0.262665,-0.297180,-1.296445,0.411576,0.944452,-0.882216,-0.400055,-0.248298,-0.130907,0.054886,-0.069299,0.884466,-5.630655,0.569161,258.111115,259.207825,25.000000,28.710256,77.206524,65.000000,-1.000000,-1.000000,201.005875
462463450.939338,-1.237625,-0.262726,-0.358688,-1.481124,0.395209,0.989412,-0.919208,-0.385001,-0.082649,-0.318417,0.122275,-0.276039,1.334160,-4.488586,0.851585,259.665100,260.761810,25.000000,28.710256,77.206524,65.000000,-1.000000,-1.000000,201.005875
462463450.972814,-1.241959,-0.080124,0.031204,-1.616614,0.365931,1.043033,-0.932811,-0.357819,0.042769,-0.360676,0.228699,-0.133773,1.544355,-2.998928,0.987192,259.913635,261.010345,25.000000,28.710256,77.206524,65.000000,-1.000000,-1.000000,201.005875
462463451.005982,-0.886719,-0.033249,0.169266,-1.700322,0.334898,1.074515,-0.936533,-0.328672,0.121988,-0.099631,0.287367,0.040716,0.423251,-1.820913,0.708239,257.887268,258.983978,25.000000,28.710256,77.206524,65.000000,-1.000000,-1.000000,201.005875
462463451.039347,-0.856476,-0.058456,0.135956,-1.738346,0.323893,1.062563,-0.934728,-0.318260,0.158095,0.078252,0.259803,-0.022139,-0.752669,-0.859395,0.291942,256.654816,257.751526,25.000000,28.709882,77.206297,30.000000,160.312500,0.960000,212.814636
462463451.072644,-0.628021,-0.017456,0.056290,-1.733834,0.323152,1.029509,-0.935664,-0.317557,0.153914,0.241954,0.314536,-0.092605,-1.001789,0.260868,0.048289,257.453705,258.550415,25.000000,28.709882,77.206297,30.000000,160.312500,0.960000,212.814636
462463451.105978,-0.570938,0.036697,-0.062805,-1.698370,0.327348,0.995377,-0.939204,-0.321533,0.120472,0.378611,0.316604,-0.147526,-1.073666,1.312437,0.181226,259.119843,260.216553,25.000000,28.709882,77.206297,30.000000,160.312500,0.960000,212.814636
462463451.139290,-0.564285,0.055984,-0.116287,-1.643935,0.317641,0.962369,-0.947435,-0.312326,0.069418,0.374758,0.382089,-0.168188,-0.674656,0.761484,0.525274,260.269348,261.366058,25.000000,28.709882,77.206297,30.000000,160.312500,0.960000,212.814636
462463451.172628,-0.551468,-0.015732,-0.228760,-1.629952,0.278506,0.951284,-0.959785,-0.274920,0.056843,0.443138,0.292269,-0.297398,0.103447,0.196910,1.609253,260.408142,261.504852,25.000000,28.709882,77.206297,30.000000,160.312500,0.960000,212.814636
462463451.205974,-0.641235,0.078430,-0.170044,-1.629992,0.217142,0.966573,-0.974807,-0.215439,0.057772,0.386199,0.327591,-0.218142,0.798698,-0.146893,1.927880,257.590607,258.687317,25.000000,28.709882,77.206297,30.000000,160.312500,0.960000,212.814636
462463451.239407,-0.593826,0.079712,-0.147781,-1.653238,0.142737,0.989833,-0.986468,-0.142253,0.081511,0.375125,0.216319,-0.242995,0.820740,-0.702010,2.544815,251.384613,252.481323,25.000000,28.709877,77.206299,30.000000,159.960938,0.960000,212.939331
462463451.272643,-0.856262,0.323761,-0.083221,-1.658275,0.044893,0.995967,-0.995173,-0.044878,0.087280,0.289148,0.207643,-0.236510,0.301033,0.237291,3.320843,247.547241,248.643951,25.000000,28.709877,77.206299,30.000000,159.960938,0.960000,212.939331
462463451.305959,-0.996628,0.510666,-0.177094,-1.643848,-0.082823,0.984446,-0.993914,0.082728,0.072736,-0.033216,0.365316,-0.140440,-0.297277,0.743674,4.534914,241.206024,242.302734,25.000000,28.709877,77.206299,30.000000,159.960938,0.960000,212.939331
462463451.339313,-1.042374,0.793274,-0.295670,-1.612942,-0.250807,0.949859,-0.967852,0.248186,0.040815,-0.025754,0.300169,-0.221555,-1.161471,1.293974,5.705036,230.873947,231.970657,25.000000,28.709877,77.206299,30.000000,159.960938,0.960000,212.939331
462463451.372710,-1.251862,0.898102,-0.344284,-1.577603,-0.436008,0.898269,-0.906424,0.422324,0.006170,-0.135950,0.370950,-0.301840,-1.186702,1.895234,5.668351,225.462784,226.559494,25.000000,28.709877,77.206299,30.000000,159.960938,0.960000,212.939331
462463451.405990,-1.683060,1.139893,-0.587906,-1.512648,-0.622310,0.891330,-0.811161,0.582914,-0.047221,-0.560238,0.430849,-0.328084,0.390352,2.218586,5.734524,213.422913,214.519623,25.000000,28.709877,77.206299,30.000000,159.960938,0.960000,212.939331
462463451.439433,-1.321381,1.079376,-0.630264,-1.403421,-0.784778,0.963989,-0.697657,0.706668,-0.117873,-0.905675,0.419674,-0.533784,1.555316,1.483323,4.877213,200.230057,201.326767,25.000000,28.709877,77.206299,30.000000,159.960938,0.960000,212.939331
462463451.472616,-1.350235,1.061829,-0.538254,-1.272696,-0.915473,1.105508,-0.582538,0.792851,-0.178988,-0.738842,0.286525,-0.451276,2.074232,0.174790,4.354964,190.726746,191.823456,25.000000,28.709877,77.206299,30.000000,159.960938,0.960000,212.939331
462463451.505228,-1.321762,0.966431,-0.403183,-1.143186,-0.999945,1.289178,-0.491695,0.841441,-0.224081,-0.906941,0.209798,-0.257990,2.023683,-1.128385,3.219516,184.504929,185.601639,25.000000,28.709877,77.206299,30.000000,159.960938,0.960000,212.939331
462463451.538786,-0.944168,0.764572,-0.203568,-0.999735,-1.056642,1.508045,-0.413764,0.870709,-0.265829,-0.729822,-0.037152,0.002264,1.167633,-0.833565,0.993241,175.645523,176.742233,25.000000,28.709877,77.206299,30.000000,159.960938,0.960000,212.939331
462463451.572333,-1.000717,0.517731,-0.221207,-0.986213,-1.047373,1.560845,-0.416844,0.866113,-0.275842,-0.617412,-0.214334,0.050698,0.599141,-1.189283,-0.341051,169.455215,170.551926,25.000000,28.709877,77.206299,30.000000,159.960938,0.960000,212.939331
462463451.605699,-0.696060,0.481384,-0.105804,-1.039945,-1.013317,1.552894,-0.456239,0.848591,-0.267840,-0.251936,-0.375111,0.163028,0.409760,-1.527411,-1.287092,168.146042,169.242752,25.000000,28.709877,77.206299,30.000000,159.960938,0.960000,212.939331
462463451.639014,-0.508911,0.395340,-0.187241,-1.100143,-0.972061,1.526272,-0.502320,0.826049,-0.255574,-0.133575,-0.426513,0.082036,-0.018338,-0.923171,-1.336646,168.163635,169.260345,25.000000,28.709877,77.206299,30.000000,159.960938,0.960000,212.939331
462463451.671663,-0.382050,0.521790,-0.150665,-1.163951,-0.935519,1.484076,-0.544963,0.804907,-0.234817,0.119243,-0.375311,0.065261,-0.239340,-0.865930,-1.375506,169.324265,170.420975,25.000000,28.709877,77.206299,30.000000,159.960938,0.960000,212.939331
462463451.705661,-0.242111,0.556534,-0.196014,-1.206090,-0.895832,1.454076,-0.583771,0.780729,-0.222875,0.312683,-0.232115,0.014898,0.127727,-0.397689,-1.382293,170.614182,171.710892,25.000000,28.709877,77.206299,30.000000,159.960938,0.960000,212.939331
462463451.739061,-0.268082,0.675369,-0.237930,-1.206947,-0.846499,1.475061,-0.619231,0.748965,-0.235806,0.394835,-0.184039,0.047237,1.234906,-0.508256,-1.160444,173.298721,174.395432,25.000000,28.709877,77.206299,30.000000,159.960938,0.960000,212.939331
462463451.772384,-0.138916,0.721970,-0.445816,-1.193056,-0.801605,1.498643,-0.646518,0.718473,-0.256535,0.397708,-0.023496,-0.044414,0.678776,0.081253,-1.092486,174.873199,175.969910,25.000000,28.709877,77.206299,30.000000,159.960938,0.960000,212.939331
462463451.805748,-0.239944,0.882217,-0.077301,-1.191941,-0.766353,1.481466,-0.669357,0.693512,-0.266461,0.462814,0.141967,0.190229,-0.469003,0.649178,-1.197199,175.242889,176.339600,25.000000,28.709877,77.206299,30.000000,159.960938,0.960000,212.939331
462463451.839040,-0.410065,1.120026,-0.062622,-1.220460,-0.745104,1.400889,-0.690370,0.678049,-0.252268,0.436464,0.210745,0.209131,-2.233814,0.970280,-1.390791,179.003922,180.100632,25.000000,28.709877,77.206299,30.000000,159.960938,0.960000,212.939331
462463451.872357,-0.529556,1.268585,-0.054321,-1.316490,-0.714211,1.159317,-0.731309,0.655021,-0.190092,0.201752,0.613564,0.135771,-4.065871,1.497988,-1.785820,186.659042,187.755753,25.000000,28.709877,77.206299,30.000000,159.960938,0.960000,212.939331
462463451.905689,-0.835770,1.268723,-0.196121,-1.356136,-0.702248,1.064589,-0.745871,0.645935,-0.162614,0.090903,0.521301,0.084123,-4.162418,1.316066,-1.694462,196.319153,197.415863,15.000000,28.709877,77.206299,30.000000,159.960938,0.960000,212.939331
462463451.939080,-0.930649,1.319534,-0.442368,-1.459036,-0.700913,0.848468,-0.759486,0.644915,-0.085235,-0.288060,0.778333,-0.313843,-2.365422,0.313269,0.214210,204.059906,205.156616,15.000000,28.709877,77.206299,30.000000,159.960938,0.960000,212.939331
462463451.972481,-0.709076,1.192993,-0.420471,-1.490559,-0.714279,0.796709,-0.753135,0.655073,-0.060560,0.044059,0.537920,-0.359911,-0.415248,-0.115396,0.191906,212.021652,213.118362,15.000000,28.709877,77.206299,30.000000,159.960938,0.960000,212.939331
462463452.005699,-0.925095,0.884918,-0.361252,-1.478953,-0.705300,0.818204,-0.758208,0.648262,-0.069833,-0.050844,0.269264,-0.333122,0.911114,0.117411,-0.572556,213.170578,214.267288,15.000000,28.709877,77.206299,30.000000,159.960938,0.960000,212.939331
462463452.039202,-1.061401,0.794128,-0.075928,-1.461139,-0.691573,0.833462,-0.765618,0.637749,-0.084293,-0.233818,0.218482,-0.235943,0.691727,0.719360,-0.868158,213.458954,214.555664,15.000000,28.709877,77.206299,30.000000,159.960938,0.960000,212.939331
462463452.072526,-0.664032,0.653061,-0.062607,-1.396563,-0.651028,0.778840,-0.783418,0.606004,-0.137895,-0.098983,0.125243,0.176729,-1.981587,3.441091,-0.664383,216.463867,217.560577,15.000000,28.709877,77.206299,30.000000,159.960938,0.960000,212.939331
462463452.104808,-0.432495,0.555206,-0.111694,-1.316247,-0.672831,0.690458,-0.756860,0.623203,-0.196930,0.222955,-0.045902,0.076538,-2.179646,4.154987,0.676343,220.326065,221.422775,15.000000,28.709877,77.206299,30.000000,159.960938,0.960000,212.939331
462463452.139104,-0.244507,0.486023,-0.407776,-1.239090,-0.713945,0.652827,-0.714585,0.654820,-0.246127,0.418885,-0.150884,0.042300,-0.419010,2.268168,1.134391,226.858856,227.955566,15.000000,28.709877,77.206299,30.000000,159.960938,0.960000,212.939331
462463452.172360,-0.203232,0.307068,-0.352875,-1.178812,-0.744007,0.693887,-0.679955,0.677242,-0.281078,0.496621,-0.286876,-0.118825,1.116170,0.208252,1.171530,228.642822,229.739532,15.000000,28.710107,77.206317,30.000000,174.726562,0.600000,223.357544
462463452.205686,-0.216019,0.366760,-0.277725,-1.142667,-0.745526,0.772337,-0.668417,0.678358,-0.305038,0.471655,-0.354582,-0.019043,1.829787,-0.914492,0.448834,225.057022,226.153732,15.000000,28.710107,77.206317,30.000000,174.726562,0.600000,223.357544
462463452.239034,-0.264069,0.386826,-0.138702,-1.131923,-0.731336,0.845743,-0.673748,0.667864,-0.316261,0.390759,-0.315035,0.095145,1.499744,-1.296657,0.309816,222.973328,224.070038,15.000000,28.710107,77.206317,30.000000,174.726562,0.600000,223.357544
462463452.272360,-0.293152,0.490906,-0.080475,-1.147952,-0.725068,0.883813,-0.682534,0.663187,-0.307133,0.426095,-0.225244,0.179081,0.381709,-1.271669,0.138759,219.055954,220.152664,15.000000,28.710107,77.206317,30.000000,174.726562,0.600000,223.357544
462463452.305702,-0.349716,0.646194,-0.079605,-1.191419,-0.732560,0.884426,-0.690601,0.668775,-0.275336,0.357608,-0.097212,0.190482,-0.259659,-1.401553,0.318156,216.767075,217.863785,15.000000,28.710107,77.206317,30.000000,174.726562,0.600000,223.357544
462463452.339037,-0.410858,0.791183,-0.217697,-1.244059,-0.748277,0.879764,-0.694090,0.680377,-0.235216,0.327314,0.025250,0.069368,-0.266040,-1.649792,0.475525,215.487442,216.584152,15.000000,28.710107,77.206317,30.000000,174.726562,0.600000,223.357544
462463452.372387,-0.573593,0.879730,-0.253494,-1.312867,-0.759371,0.871047,-0.701278,0.688465,-0.185001,0.238707,0.168163,-0.064877,-0.205215,-2.253022,-0.042612,212.344070,213.440781,15.000000,28.710107,77.206317,30.000000,174.726562,0.600000,223.357544
462463452.405724,-0.841492,1.014069,-0.259903,-1.401481,-0.756464,0.885009,-0.716868,0.686354,-0.122550,0.143275,0.193376,-0.130945,0.811524,-3.470565,0.327439,208.813232,209.909943,15.000000,28.710107,77.206317,30.000000,174.726562,0.600000,223.357544
462463452.439052,-1.113571,1.034027,-0.245636,-1.468583,-0.776778,0.935797,-0.709453,0.700985,-0.072770,-0.337452,0.403965,-0.207443,0.858673,-2.873629,0.681761,205.522614,206.619324,15.000000,28.710107,77.206317,30.000000,174.726562,0.600000,223.357544
462463452.471742,-1.225830,1.019333,-0.215652,-1.540939,-0.773520,0.939175,-0.715137,0.698658,-0.021359,-0.429501,0.274380,-0.249958,-0.481126,-1.838764,-0.595421,200.280029,201.376740,15.000000,28.710107,77.206317,30.000000,174.726562,0.600000,223.357544
462463452.505980,-1.220673,0.991898,-0.147903,-1.589115,-0.757723,0.904664,-0.726281,0.687269,0.013306,-0.499549,0.332063,-0.228958,-0.851492,0.238906,-0.237085,200.879120,201.975830,15.000000,28.710107,77.206317,30.000000,174.726562,0.600000,223.357544
462463452.539085,-0.916611,1.055313,-0.085312,-1.542630,-0.762525,0.856099,-0.722807,0.690749,-0.020364,-0.300569,0.389893,-0.076316,-0.553151,1.879894,0.264917,201.980713,203.077423,15.000000,28.710107,77.206317,30.000000,174.726562,0.600000,223.357544
462463452.572488,-0.965851,1.010040,-0.066803,-1.517102,-0.772965,0.832140,-0.714812,0.698261,-0.038418,-0.212968,0.322644,-0.042087,-0.596681,0.801472,0.287531,204.529297,205.626007,15.000000,28.710107,77.206317,30.000000,174.726562,0.600000,223.357544
462463452.605925,-0.979980,1.027542,-0.014709,-1.529985,-0.781429,0.805426,-0.709317,0.704295,-0.028965,-0.270664,0.323247,0.014255,-0.539832,-0.242739,0.140986,206.220276,207.316986,15.000000,28.710107,77.206317,30.000000,174.726562,0.600000,223.357544
462463452.638778,-0.743149,0.829712,-0.087570,-1.560581,-0.776914,0.799395,-0.713043,0.701082,-0.007284,-0.083405,0.201078,-0.043146,0.295944,-1.077832,-0.393318,206.320221,207.416931,15.000000,28.710107,77.206317,30.000000,174.726562,0.600000,223.357544
462463452.672238,-0.607651,0.553513,-0.214401,-1.567046,-0.751788,0.840742,-0.730464,0.682946,-0.002739,0.062724,0.001975,-0.201103,1.303877,-0.998660,-1.014719,206.026413,207.123123,15.000000,28.710107,77.206317,30.000000,174.726562,0.600000,223.357544
462463452.705539,-0.560379,0.493088,-0.192749,-1.545069,-0.713814,0.901975,-0.755620,0.654721,-0.019444,0.175817,-0.146405,-0.192226,1.390395,-0.287017,-1.183483,205.649200,206.745911,15.000000,28.710107,77.206317,30.000000,174.726562,0.600000,223.357544
462463452.738910,-0.449112,0.474274,-0.040787,-1.519915,-0.672710,0.951611,-0.781124,0.623108,-0.039779,0.298183,-0.132797,-0.029389,1.136677,-0.219025,-1.303223,205.990326,207.087036,15.000000,28.710107,77.206317,30.000000,174.726562,0.600000,223.357544
462463452.772265,-0.325943,0.409515,-0.060043,-1.504937,-0.629144,0.989007,-0.806779,0.588453,-0.053211,0.448350,-0.188825,-0.017300,0.858572,-0.125353,-1.235519,206.627914,207.724625,15.000000,28.710107,77.206317,30.000000,174.726562,0.600000,223.357544
462463452.805565,-0.244659,0.508011,0.029709,-1.489575,-0.588581,1.004679,-0.828988,0.555181,-0.067480,0.508522,-0.131689,0.027548,0.221413,0.303180,-1.272720,206.828415,207.925125,15.000000,28.710107,77.206317,30.000000,174.726562,0.600000,223.357544
462463452.838945,-0.227676,0.556229,0.008713,-1.483796,-0.546648,1.000283,-0.851041,0.519827,-0.074228,0.606381,-0.011816,0.103937,-0.137754,0.298655,-1.275419,210.453735,211.550446,15.000000,28.710107,77.206317,30.000000,174.726562,0.600000,223.357544
462463452.872234,-0.220856,0.772797,-0.013641,-1.483982,-0.516235,0.961247,-0.866408,0.493609,-0.075406,0.643691,0.202451,0.061536,-1.028062,0.454557,0.014335,212.588211,213.684921,15.000000,28.710107,77.206317,30.000000,174.726562,0.600000,223.357544
462463452.905585,-0.221756,1.089096,-0.017227,-1.489401,-0.537638,0.919463,-0.856077,0.512108,-0.069835,0.651884,0.406547,0.077693,-1.244597,0.397649,0.873369,215.838333,216.935043,15.000000,28.710107,77.206317,30.000000,174.726562,0.600000,223.357544
462463452.938920,-0.245255,1.166473,-0.043320,-1.497439,-0.557283,0.898383,-0.846413,0.528882,-0.062202,0.624657,0.560214,0.044975,-1.171393,0.043557,1.264206,216.466095,217.562805,15.000000,28.710107,77.206317,30.000000,174.726562,0.600000,223.357544
462463452.972260,-0.577530,1.350693,-0.126648,-1.547645,-0.624372,0.825267,-0.811113,0.584588,-0.018781,0.310442,0.768974,-0.085314,-1.718324,-0.141540,1.299692,216.008820,217.105530,15.000000,28.710107,77.206317,30.000000,174.726562,0.600000,223.357544
462463453.005600,-0.856171,1.468643,-0.172073,-1.600682,-0.680603,0.743435,-0.776847,0.629261,0.023223,-0.000909,0.756435,-0.184814,-2.006290,-0.023750,2.178399,215.028229,216.124939,15.000000,28.710107,77.206317,30.000000,174.726562,0.600000,223.357544
462463453.038939,-0.900864,1.445099,-0.208618,-1.624776,-0.719528,0.703908,-0.751021,0.659030,0.040579,-0.105149,0.809614,-0.212653,-1.627195,0.105934,2.642396,214.807144,215.903854,15.000000,28.710107,77.206317,30.000000,174.726562,0.600000,223.357544
462463453.072318,-0.798615,1.214828,-0.293900,-1.643715,-0.854645,0.668745,-0.654742,0.754338,0.047828,-0.127469,0.497173,-0.335761,0.703872,0.280034,2.072862,212.555756,213.652466,15.000000,28.710107,77.206317,30.000000,174.726562,0.600000,223.357544
462463453.105591,-1.220657,0.940338,-0.174393,-1.591679,-0.893661,0.720853,-0.626426,0.779371,0.013083,-0.380181,0.275149,-0.259879,1.177640,0.477537,0.655621,205.757233,206.853943,15.000000,28.710107,77.206317,30.000000,174.726562,0.600000,223.357544
462463453.138919,-1.168243,0.859604,-0.029984,-1.535619,-0.905293,0.763666,-0.617073,0.786606,-0.021716,-0.607277,0.115524,-0.095716,0.431008,0.818696,0.259766,203.126801,204.223511,15.000000,28.710107,77.206317,30.000000,174.726562,0.600000,223.357544
462463453.172347,-0.844681,0.602890,0.075836,-1.521230,-0.908198,0.762853,-0.614412,0.788396,-0.030479,-0.478682,0.012873,0.081764,-0.286944,0.990544,0.120803,202.895233,203.991943,15.000000,28.710107,77.206317,30.000000,174.726562,0.600000,223.357544
462463453.205597,-0.511154,0.403671,0.016907,-1.532609,-0.897359,0.673650,-0.623222,0.781683,-0.023811,0.002677,-0.292562,0.083060,-1.307353,1.287491,-0.507289,204.949524,206.046234,15.000000,28.710124,77.206396,10.000000,278.789062,1.380000,195.739502
462463453.238975,-0.444366,0.357864,-0.054901,-1.533367,-0.878719,0.625867,-0.637691,0.769922,-0.023880,0.159389,-0.394693,-0.003952,-0.573840,0.970332,-0.670547,209.578278,210.674988,15.000000,28.710124,77.206396,10.000000,278.789062,1.380000,195.739502
462463453.272260,-0.328629,0.326294,-0.117813,-1.523383,-0.854355,0.615784,-0.655967,0.754147,-0.031125,0.280357,-0.418484,-0.063937,-0.038911,0.247856,-0.833723,211.706467,212.803177,15.000000,28.710124,77.206396,10.000000,278.789062,1.380000,195.739502
462463453.305648,-0.263077,0.434479,-0.066650,-1.535979,-0.826468,0.602499,-0.677067,0.735543,-0.023584,0.394841,-0.370675,-0.097999,-0.436932,-0.234005,-0.857584,214.128586,215.225296,15.000000,28.710124,77.206396,10.000000,278.789062,1.380000,195.739502
462463453.339115,-0.277725,0.487030,-0.043442,-1.566871,-0.802074,0.567777,-0.695212,0.718800,-0.002729,0.418219,-0.264973,-0.047686,-0.931789,-0.058853,-0.656926,217.633179,218.729889,15.000000,28.710124,77.206396,10.000000,278.789062,1.380000,195.739502
462463453.372313,-0.295364,0.725082,-0.020126,-1.603165,-0.796809,0.516889,-0.698626,0.715129,0.022621,0.412173,-0.115291,-0.047218,-0.979788,-0.022598,0.322030,219.444000,220.540710,15.000000,28.710124,77.206396,10.000000,278.789062,1.380000,195.739502
462463453.405710,-0.337326,0.842712,-0.056946,-1.626661,-0.821013,0.483212,-0.680417,0.731836,0.038051,0.339277,0.058569,-0.013957,-0.538935,0.057376,0.948038,220.131226,221.227936,15.000000,28.710124,77.206396,10.000000,278.789062,1.380000,195.739502
462463453.439089,-0.498215,0.881531,-0.015640,-1.645387,-0.846492,0.458630,-0.660772,0.748961,0.049379,0.247915,0.113161,-0.074266,-0.413352,-0.138489,0.693524,219.087143,220.183853,15.000000,28.710124,77.206396,10.000000,278.789062,1.380000,195.739502
462463453.472362,-0.754303,0.988342,-0.080612,-1.666857,-0.861576,0.436543,-0.648240,0.758870,0.062462,-0.017242,0.142253,-0.087578,-0.419492,-0.081246,0.384239,217.472061,218.568771,15.000000,28.710124,77.206396,10.000000,278.789062,1.380000,195.739502
462463453.505931,-0.997086,1.094971,-0.015427,-1.670239,-0.872835,0.429005,-0.639482,0.766154,0.063802,-0.167250,0.275518,-0.060476,0.411286,0.266833,0.315138,217.442841,218.539551,15.000000,28.710124,77.206396,10.000000,278.789062,1.380000,195.739502
462463453.538985,-1.229446,1.164795,0.032608,-1.653625,-0.867526,0.404710,-0.644498,0.762731,0.053506,-0.395052,0.324320,-0.237679,-0.560729,1.161937,0.041365,217.397690,218.494400,15.000000,28.710124,77.206396,10.000000,278.789062,1.380000,195.739502
462463453.572367,-1.056900,1.152374,-0.024323,-1.619639,-0.876087,0.386415,-0.639399,0.768240,0.031255,-0.480551,0.377451,-0.072514,-0.193918,1.483340,0.320352,220.416733,221.513443,15.000000,28.710124,77.206396,10.000000,278.789062,1.380000,195.739502
462463453.605691,-0.921066,0.972153,-0.062653,-1.574341,-0.868973,0.399176,-0.645607,0.763666,0.002288,-0.281471,0.298254,-0.036911,0.623521,0.761827,-0.778878,220.762451,221.859161,15.000000,28.710124,77.206396,10.000000,278.789062,1.380000,195.739502
462463453.639034,-1.147110,0.952881,-0.045914,-1.539564,-0.819582,0.439684,-0.682194,0.730861,-0.021314,-0.327160,0.176015,-0.040607,0.869377,-0.301891,-1.866866,221.590393,222.687103,15.000000,28.710124,77.206396,10.000000,278.789062,1.380000,195.739502
462463453.672394,-1.155060,1.025909,-0.032516,-1.544524,-0.757153,0.466511,-0.726543,0.686855,-0.019093,-0.453922,0.314884,-0.010647,0.524158,-1.012450,-1.925865,223.528900,224.625610,15.000000,28.710124,77.206396,10.000000,278.789062,1.380000,195.739502
462463453.704953,-0.789093,0.824219,-0.137375,-1.564534,-0.693329,0.492381,-0.769108,0.639101,-0.004817,-0.204357,0.310865,-0.061818,0.799979,-1.181245,-2.033179,225.389725,226.486435,15.000000,28.710124,77.206396,10.000000,278.789062,1.380000,195.739502
462463453.738897,-0.586060,0.643814,-0.198349,-1.566983,-0.624514,0.538082,-0.811242,0.584703,-0.003093,0.150735,0.126769,-0.172886,1.367200,-0.730402,-2.155339,228.066620,229.163330,15.000000,28.710124,77.206396,10.000000,278.789062,1.380000,195.739502
462463453.772333,-0.534546,0.596146,-0.185059,-1.545403,-0.556906,0.602039,-0.848621,0.528563,-0.021554,0.294391,0.088778,-0.166267,1.856769,-0.262890,-1.986671,230.047119,231.143829,15.000000,28.710124,77.206396,10.000000,278.789062,1.380000,195.739502
462463453.805663,-0.463730,0.540543,-0.115128,-1.516083,-0.494368,0.671038,-0.878951,0.474476,-0.048138,0.376602,0.089779,-0.108631,1.916899,-0.121027,-1.803400,230.059464,231.156174,15.000000,28.710124,77.206396,10.000000,278.789062,1.380000,195.739502
462463453.839026,-0.364914,0.513443,-0.045044,-1.492309,-0.434741,0.731773,-0.904187,0.421176,-0.071113,0.469540,0.107206,-0.024254,1.697806,-0.095953,-1.663801,230.616180,231.712891,15.000000,28.710124,77.206396,10.000000,278.789062,1.380000,195.739502
462463453.872341,-0.322189,0.501587,-0.023712,-1.470504,-0.358232,0.799873,-0.931812,0.350619,-0.093768,0.609623,0.150968,0.070056,1.255728,-0.154846,-1.129779,231.756348,232.853058,15.000000,28.710124,77.206396,10.000000,278.789062,1.380000,195.739502
462463453.905671,-0.329361,0.593185,-0.010086,-1.463669,-0.331256,0.835178,-0.940214,0.325231,-0.101109,0.615263,0.232905,0.094136,0.958758,-0.205032,-0.454432,231.169800,232.266510,15.000000,28.710124,77.206396,10.000000,278.789062,1.380000,195.739502
462463453.939058,-0.292892,0.676758,-0.013214,-1.468387,-0.327493,0.855628,-0.941891,0.321670,-0.096797,0.658627,0.330277,0.083568,0.344368,-0.399400,0.298008,230.829712,231.926422,15.000000,28.710124,77.206396,10.000000,278.789062,1.380000,195.739502
462463453.972391,-0.342010,0.744370,-0.012192,-1.483327,-0.352886,0.860204,-0.934792,0.345607,-0.081975,0.592781,0.398763,0.069783,-0.086247,-0.654224,1.143957,229.528824,230.625534,15.000000,28.710124,77.206396,10.000000,278.789062,1.380000,195.739502
462463454.005722,-0.572525,0.891800,-0.053635,-1.512819,-0.399577,0.859133,-0.919678,0.389029,-0.053380,0.414978,0.467935,0.018514,-0.152548,-1.051748,1.556122,226.529694,227.626404,15.000000,28.710124,77.206396,10.000000,278.789062,1.380000,195.739502
462463454.039121,-0.858124,0.917374,-0.090836,-1.553174,-0.444837,0.853536,-0.902541,0.430311,-0.015907,0.177611,0.483569,-0.060524,-0.296724,-1.145995,1.258272,223.718262,224.814972,15.000000,28.710124,77.206396,10.000000,278.789062,1.380000,195.739502
462463454.072550,-0.994537,0.910522,-0.116913,-1.588072,-0.489289,0.827934,-0.882535,0.469999,0.015248,-0.112002,0.440524,-0.132161,-1.090747,-0.362692,1.557946,221.007599,222.104309,15.000000,28.710124,77.206396,10.000000,278.789062,1.380000,195.739502
462463454.105735,-1.055923,0.965790,-0.068695,-1.611576,-0.537816,0.767978,-0.858115,0.512262,0.035013,-0.209542,0.454855,-0.122827,-1.777769,0.427479,1.406959,218.060364,219.157074,15.000000,28.710124,77.206396,10.000000,278.789062,1.380000,195.739502
462463454.139057,-1.022263,0.848541,-0.065964,-1.632162,-0.564032,0.710677,-0.843516,0.534598,0.051828,-0.165090,0.394983,-0.081278,-1.230666,0.244006,0.401564,217.605316,218.702026,15.000000,28.710124,77.206396,10.000000,278.789062,1.380000,195.739502
462463454.172248,-1.054733,0.779556,-0.149261,-1.637885,-0.563107,0.686179,-0.843699,0.533816,0.056688,-0.178564,0.314726,-0.122652,-1.348005,0.596254,-0.138436,219.427109,220.523819,15.000000,28.710124,77.206396,10.000000,278.789062,1.380000,195.739502
462463454.205689,-1.063049,0.775131,-0.067413,-1.617973,-0.546575,0.603830,-0.853359,0.519764,0.040288,-0.254551,0.226100,-0.124395,-1.315306,1.598994,-0.095716,224.780594,225.877304,15.000000,28.710142,77.206416,5.000000,284.414062,1.530000,196.650879
462463454.239079,-0.799164,0.668884,-0.126083,-1.584297,-0.548425,0.571289,-0.853269,0.521344,0.011520,-0.052417,0.245593,-0.078522,-0.517330,1.560196,0.202357,227.469086,228.565796,15.000000,28.710142,77.206416,5.000000,284.414062,1.530000,196.650879
462463454.272387,-0.629807,0.446884,-0.137238,-1.538139,-0.557173,0.564835,-0.848301,0.528789,-0.027713,0.095371,0.082662,-0.116101,0.015494,1.516397,0.264207,230.301727,231.398438,15.000000,28.710142,77.206416,5.000000,284.414062,1.530000,196.650879
462463454.305813,-0.563080,0.365417,-0.104050,-1.487507,-0.562955,0.574686,-0.842750,0.533687,-0.070355,0.212944,-0.086803,-0.066883,0.403630,1.277319,0.179274,231.547775,232.644485,15.000000,28.710142,77.206416,5.000000,284.414062,1.530000,196.650879
462463454.339271,-0.481018,0.304855,-0.044601,-1.445324,-0.568254,0.598190,-0.836216,0.538161,-0.105476,0.319325,-0.222152,0.036933,0.677136,0.673865,0.244719,231.665390,232.762100,15.000000,28.710142,77.206416,5.000000,284.414062,1.530000,196.650879
462463454.372465,-0.441437,0.329773,0.005859,-1.423245,-0.569384,0.618284,-0.833082,0.539113,-0.123822,0.358884,-0.227193,0.090085,0.327240,0.052937,-0.034815,231.141586,232.238297,15.000000,28.710142,77.206416,5.000000,284.414062,1.530000,196.650879
462463454.405739,-0.441147,0.345963,0.015961,-1.436503,-0.562222,0.620176,-0.838455,0.533067,-0.113280,0.397018,-0.203294,0.119140,-0.049862,-0.641406,-0.296744,230.726913,231.823624,15.000000,28.710142,77.206416,5.000000,284.414062,1.530000,196.650879
462463454.439832,-0.537262,0.505783,-0.020737,-1.450752,-0.556352,0.615312,-0.843076,0.528092,-0.101696,0.378140,-0.138627,0.100017,-0.139070,-0.032234,-0.061930,230.606232,231.702942,15.000000,28.710142,77.206416,5.000000,284.414062,1.530000,196.650879
462463454.472313,-0.572250,0.627563,-0.039719,-1.449249,-0.559592,0.600149,-0.841219,0.530840,-0.102754,0.284136,0.034589,0.075655,-0.687056,0.389550,0.087063,230.442154,231.538864,15.000000,28.710142,77.206416,5.000000,284.414062,1.530000,196.650879
462463454.505788,-0.612549,0.657852,-0.026230,-1.461649,-0.565251,0.563274,-0.839429,0.535628,-0.091987,0.267179,0.091935,0.052268,-1.044449,0.066792,0.016786,232.541321,233.638031,15.000000,28.710142,77.206416,5.000000,284.414062,1.530000,196.650879
462463454.538978,-0.961136,0.855667,-0.096634,-1.495253,-0.580000,0.514162,-0.834077,0.548024,-0.063129,-0.031081,0.247767,-0.004010,-0.953713,-0.208405,0.486274,234.456314,235.553024,15.000000,28.710142,77.206416,5.000000,284.414062,1.530000,196.650879
462463454.572341,-1.000183,0.866989,-0.185303,-1.531360,-0.590995,0.463931,-0.829741,0.557187,-0.032739,-0.170900,0.345980,-0.100073,-1.495000,-0.320214,0.014760,234.561844,235.658554,15.000000,28.710142,77.206416,5.000000,284.414062,1.530000,196.650879
462463454.605675,-1.201904,0.914871,-0.179199,-1.559116,-0.588605,0.416608,-0.831659,0.555202,-0.009715,-0.217795,0.294652,-0.178167,-0.862535,0.211077,0.070421,235.610016,236.706726,15.000000,28.710142,77.206416,5.000000,284.414062,1.530000,196.650879
462463454.639008,-1.381546,0.993927,-0.261002,-1.542931,-0.605549,0.412028,-0.821870,0.569214,-0.022908,-0.596053,0.433182,-0.215984,0.361761,0.672702,0.668113,236.949738,238.046448,15.000000,28.710142,77.206416,5.000000,284.414062,1.530000,196.650879
462463454.672342,-1.134628,0.768051,-0.251221,-1.519534,-0.612291,0.445810,-0.817258,0.574744,-0.041931,-0.397112,0.305703,-0.239151,1.173242,-0.375197,-0.200985,236.495544,237.592255,15.000000,28.710142,77.206416,5.000000,284.414062,1.530000,196.650879
462463454.705705,-1.216385,0.742783,-0.202103,-1.526338,-0.590413,0.497675,-0.829890,0.556704,-0.036920,-0.334996,0.179228,-0.190726,1.362518,-1.523023,-0.773799,234.897720,235.994431,15.000000,28.710142,77.206416,5.000000,284.414062,1.530000,196.650879
462463454.739033,-1.210526,0.770493,-0.121689,-1.551939,-0.565922,0.539705,-0.843945,0.536194,-0.015917,-0.466770,0.238266,-0.144545,0.932344,-1.401424,-0.662395,233.129059,234.225769,15.000000,28.710142,77.206416,5.000000,284.414062,1.530000,196.650879
462463454.772347,-0.857056,0.585953,-0.177856,-1.569278,-0.544100,0.569954,-0.855592,0.517648,-0.001299,-0.159346,0.169028,-0.132536,0.743623,-0.744174,-0.694787,232.622711,233.719421,15.000000,28.710142,77.206416,5.000000,284.414062,1.530000,196.650879
462463454.806806,-0.718124,0.488556,-0.193817,-1.564070,-0.521086,0.608090,-0.867260,0.497822,-0.005833,0.090328,0.032985,-0.178676,1.321138,-0.290383,-0.718075,231.517273,232.613983,15.000000,28.710142,77.206416,5.000000,284.414062,1.530000,196.650879
462463454.839311,-0.541061,0.358032,-0.237396,-1.536725,-0.494861,0.665878,-0.879524,0.474909,-0.029978,0.244423,-0.066416,-0.178305,1.740027,0.129225,-0.839837,231.155701,232.252411,15.000000,28.710142,77.206416,5.000000,284.414062,1.530000,196.650879
462463454.871989,-0.447479,0.357101,-0.137192,-1.504316,-0.463343,0.731423,-0.892587,0.446941,-0.059427,0.379816,-0.073772,-0.104086,1.807631,-0.126917,-0.944131,230.650070,231.746780,15.000000,28.710142,77.206416,5.000000,284.414062,1.530000,196.650879
462463454.905598,-0.363617,0.354019,-0.061096,-1.489715,-0.403046,0.813380,-0.916849,0.392222,-0.074502,0.529001,-0.052760,-0.034507,1.512736,-0.438252,-1.342232,229.739456,230.836166,15.000000,28.710142,77.206416,5.000000,284.414062,1.530000,196.650879
462463454.939062,-0.359756,0.388535,-0.027679,-1.488896,-0.378658,0.836233,-0.926047,0.369674,-0.076014,0.562430,-0.015655,0.014918,1.393001,-0.539991,-1.418995,227.473206,228.569916,15.000000,28.710142,77.206416,5.000000,284.414062,1.530000,196.650879
462463454.972522,-0.491776,0.516479,-0.040710,-1.513074,-0.314089,0.893431,-0.949494,0.308950,-0.054868,0.508225,0.162180,0.040495,0.919082,-1.079499,-1.051232,228.523865,229.620575,15.000000,28.710142,77.206416,5.000000,284.414062,1.530000,196.650879
462463455.005683,-0.546127,0.685669,-0.097397,-1.538569,-0.282013,0.906093,-0.959998,0.278290,-0.030949,0.422675,0.325638,-0.073879,0.001059,-0.810679,-0.903542,230.783203,231.879913,15.000000,28.710142,77.206416,5.000000,284.414062,1.530000,196.650879
462463455.039018,-0.627945,0.740631,-0.082550,-1.563197,-0.260323,0.887838,-0.966279,0.257393,-0.007344,0.406220,0.447014,-0.070369,-0.815549,-0.375324,-0.515171,231.850464,232.947174,15.000000,28.710142,77.206416,5.000000,284.414062,1.530000,196.650879
462463455.072292,-0.854660,0.976639,-0.051697,-1.577012,-0.257017,0.850402,-0.967134,0.254196,0.006011,0.155855,0.645416,-0.068175,-1.372825,-0.105505,0.113517,233.245895,234.342606,15.000000,28.710142,77.206416,5.000000,284.414062,1.530000,196.650879
462463455.105684,-0.973984,0.993469,-0.223526,-1.600405,-0.266452,0.785323,-0.964288,0.263310,0.028560,0.136774,0.714153,-0.182368,-2.479013,-0.035555,0.543577,236.348923,237.445633,15.000000,28.710142,77.206416,5.000000,284.414062,1.530000,196.650879
462463455.139075,-1.155136,0.997971,-0.145111,-1.616091,-0.302707,0.675413,-0.953554,0.298105,0.043221,-0.141661,0.697729,-0.267006,-3.686732,0.744519,1.705123,240.138519,241.235229,15.000000,28.710142,77.206416,5.000000,284.414062,1.530000,196.650879
462463455.171904,-1.001175,1.099686,-0.120956,-1.630475,-0.355859,0.547178,-0.935679,0.348396,0.055907,-0.213033,0.714959,-0.122328,-3.244929,0.800963,1.844580,243.988190,245.084900,15.000000,28.710142,77.206416,5.000000,284.414062,1.530000,196.650879
462463455.205551,-1.024384,0.730179,-0.375259,-1.629274,-0.399468,0.487555,-0.919693,0.388928,0.053843,0.033234,0.474399,-0.295542,-0.351454,0.903823,0.832304,244.786194,245.882904,15.000000,28.710160,77.206422,5.000000,284.414062,1.240000,195.395386
462463455.238876,-1.315689,0.745041,-0.384842,-1.598615,-0.427730,0.517975,-0.909558,0.414806,0.025309,-0.208225,0.277149,-0.435374,1.719177,-0.188627,0.937097,244.696228,245.792938,15.000000,28.710160,77.206422,5.000000,284.414062,1.240000,195.395386
462463455.272221,-1.096130,0.434250,-0.260132,-1.592824,-0.455454,0.584282,-0.897844,0.439870,0.019781,-0.423674,0.222117,-0.233129,1.593846,-0.711868,0.753469,239.954483,241.051193,15.000000,28.710160,77.206422,5.000000,284.414062,1.240000,195.395386
462463455.305560,-0.740494,0.287704,0.060684,-1.587665,-0.477825,0.615067,-0.887871,0.459849,0.014978,-0.143334,-0.000621,-0.157297,0.336997,0.104475,0.652767,238.550018,239.646729,15.000000,28.710160,77.206422,5.000000,284.414062,1.240000,195.395386
462463455.338894,-0.574661,0.197998,0.030563,-1.568826,-0.494800,0.605830,-0.880062,0.474856,-0.001734,0.230053,-0.242678,0.048334,-0.404764,1.114807,0.321043,235.431473,236.528183,15.000000,28.710160,77.206422,5.000000,284.414062,1.240000,195.395386
462463455.372329,-0.558456,0.178528,-0.009216,-1.531534,-0.487588,0.611892,-0.882785,0.468496,-0.034678,0.351031,-0.291189,0.080119,0.673425,0.833361,-0.431651,235.747803,236.844513,15.000000,28.710160,77.206422,5.000000,284.414062,1.240000,195.395386
462463455.405580,-0.306641,0.235794,-0.105576,-1.501662,-0.474640,0.645405,-0.887332,0.457019,-0.061443,0.286914,-0.281939,-0.003132,0.827552,0.194062,-0.287459,235.915100,237.011810,15.000000,28.710160,77.206422,5.000000,284.414062,1.240000,195.395386
462463455.438900,-0.413223,0.337204,-0.023560,-1.486808,-0.473219,0.663186,-0.886968,0.455754,-0.074670,0.580328,-0.219959,-0.030905,0.287872,0.260738,0.237245,235.782028,236.878738,15.000000,28.710160,77.206422,5.000000,284.414062,1.240000,195.395386
462463455.472280,-0.420197,0.422028,0.051819,-1.483821,-0.490152,0.669152,-0.878926,0.470760,-0.076638,0.494222,-0.098796,0.128976,0.089621,-0.208471,0.672296,234.280777,235.377487,15.000000,28.710160,77.206422,5.000000,284.414062,1.240000,195.395386
462463455.505854,-0.643921,0.507187,-0.009918,-1.499617,-0.513393,0.673679,-0.868877,0.491136,-0.061951,0.400860,-0.054292,0.058151,-0.131347,-0.751570,0.593058,232.999924,234.096634,15.000000,28.710160,77.206422,5.000000,284.414062,1.240000,195.395386
462463455.538922,-0.699005,0.498169,0.017761,-1.567030,-0.542759,0.656932,-0.856281,0.516501,-0.003225,0.157276,-0.018332,0.020986,-0.320734,-1.483876,0.501305,230.963928,232.060638,15.000000,28.710160,77.206422,5.000000,284.414062,1.240000,195.395386
462463455.572190,-0.964142,0.565811,-0.018478,-1.616170,-0.560058,0.643596,-0.846353,0.531235,0.038429,0.050668,0.026794,-0.076042,-0.428947,-1.003253,0.553031,228.452713,229.549423,15.000000,28.710160,77.206422,5.000000,284.414062,1.240000,195.395386
462463455.605497,-1.232437,0.662292,-0.005081,-1.642302,-0.568179,0.614361,-0.840728,0.538098,0.060219,-0.251893,0.038471,-0.119149,-1.009586,0.195641,0.051075,227.746384,228.843094,15.000000,28.710160,77.206422,5.000000,284.414062,1.240000,195.395386
462463455.638870,-1.267746,0.636139,-0.022934,-1.647918,-0.548541,0.556559,-0.850750,0.521443,0.065742,-0.422382,0.162289,-0.063056,-2.041349,1.117840,-0.927383,229.267151,230.363861,15.000000,28.710160,77.206422,5.000000,284.414062,1.240000,195.395386
462463455.672203,-1.360001,0.676819,0.042694,-1.615430,-0.508963,0.488244,-0.872380,0.487272,0.038963,-0.398890,0.119844,-0.048592,-1.654760,2.670833,-0.958203,235.471954,236.568665,15.000000,28.710160,77.206422,5.000000,284.414062,1.240000,195.395386
462463455.705537,-1.420197,0.832413,-0.217743,-1.540337,-0.486226,0.451286,-0.883692,0.467293,-0.026925,-0.635488,0.344978,0.058389,-0.524095,2.860173,-0.624566,243.401657,244.498367,15.000000,28.710160,77.206422,5.000000,284.414062,1.240000,195.395386
462463455.738882,-1.084961,0.576096,-0.163864,-1.476955,-0.456358,0.451129,-0.893714,0.440682,-0.084115,-0.409494,0.326469,-0.048454,0.508377,1.032263,-1.217016,246.112534,247.209244,15.000000,28.710160,77.206422,5.000000,284.414062,1.240000,195.395386
462463455.772239,-1.177872,0.573013,-0.157303,-1.483510,-0.405590,0.487483,-0.915371,0.394561,-0.080103,-0.184604,0.160233,-0.078833,1.634090,-1.821545,-1.494743,248.825989,249.922699,15.000000,28.710160,77.206422,5.000000,284.414062,1.240000,195.395386
462463455.805588,-1.413177,0.702713,-0.218643,-1.544702,-0.355325,0.551554,-0.937214,0.347895,-0.024462,-0.430126,0.324758,-0.172270,1.993377,-2.947386,-1.506399,248.683868,249.780579,15.000000,28.710160,77.206422,5.000000,284.414062,1.240000,195.395386
462463455.838889,-1.072418,0.489395,-0.151108,-1.615647,-0.299783,0.614205,-0.954440,0.295313,0.042836,-0.385541,0.367575,-0.245183,1.635556,-2.506215,-1.918580,247.747086,248.843796,15.000000,28.710160,77.206422,5.000000,284.414062,1.240000,195.395386
462463455.872210,-0.919693,0.382904,-0.119934,-1.656238,-0.201545,0.679038,-0.976184,0.200183,0.083611,0.056491,0.182721,-0.203545,0.773388,0.035741,-2.120082,247.412354,248.509064,15.000000,28.710160,77.206422,5.000000,284.414062,1.240000,195.395386
462463455.905532,-0.751526,0.341995,-0.037613,-1.629637,-0.138199,0.704954,-0.988752,0.137759,0.058247,0.183026,0.208111,-0.122181,0.608381,0.972594,-1.946453,248.193314,249.290024,15.000000,28.710160,77.206422,5.000000,284.414062,1.240000,195.395386
462463455.938907,-0.557938,0.298447,-0.056335,-1.593386,-0.077020,0.727890,-0.996781,0.076944,0.022521,0.388886,0.232825,-0.065063,0.654311,1.065667,-1.944589,250.048874,251.145584,15.000000,28.710160,77.206422,5.000000,284.414062,1.240000,195.395386
462463455.972224,-0.509476,0.297745,-0.068314,-1.561794,-0.015229,0.751617,-0.999844,0.015229,-0.009001,0.490368,0.282516,-0.059312,0.788517,0.818691,-1.888641,254.017273,255.113983,15.000000,28.710160,77.206422,5.000000,284.414062,1.240000,195.395386
462463456.005651,-0.424133,0.338074,-0.063049,-1.544671,0.044428,0.778596,-0.998672,-0.044413,-0.026097,0.543136,0.372813,-0.039241,0.919613,0.369492,-1.785560,257.137970,258.234680,15.000000,28.710160,77.206422,5.000000,284.414062,1.240000,195.395386
462463456.039074,-0.421204,0.432083,-0.051758,-1.537064,0.096179,0.809683,-0.994812,-0.096031,-0.033570,0.611374,0.460762,-0.030074,1.028637,0.310355,-1.288805,257.319733,258.416443,15.000000,28.710160,77.206422,5.000000,284.414062,1.240000,195.395386
462463456.072415,-0.474640,0.488617,-0.014587,-1.529180,0.118831,0.836826,-0.992088,-0.118552,-0.041311,0.517448,0.607169,0.026724,0.684406,0.266380,-0.190531,258.617676,259.714386,15.000000,28.710160,77.206422,5.000000,284.414062,1.240000,195.395386
462463456.105701,-0.484741,0.568832,0.058929,-1.534934,0.101365,0.844225,-0.994227,-0.101191,-0.035671,0.531337,0.659495,0.082851,-0.173832,-0.547621,1.055452,259.044495,260.141205,15.000000,28.710160,77.206422,5.000000,284.414062,1.240000,195.395386
462463456.139035,-0.613678,0.622711,0.058838,-1.566940,0.051551,0.827438,-0.998664,-0.051528,-0.003851,0.480033,0.629501,0.081182,-0.744877,-1.272863,1.714690,258.036499,259.133209,15.000000,28.710160,77.206422,5.000000,284.414062,1.240000,195.395386
462463456.172710,-0.832520,0.658981,0.013931,-1.614950,0.000233,0.793143,-0.999025,-0.000233,0.044139,0.277620,0.639470,-0.005916,-1.275977,-1.554772,1.564597,256.195892,257.292603,15.000000,28.710160,77.206422,5.000000,284.414062,1.240000,195.395386
462463456.205582,-1.343903,0.797272,-0.080307,-1.649166,-0.053824,0.734198,-0.995487,0.053798,0.078176,-0.238308,0.696369,-0.142934,-2.010205,-0.457674,2.069007,254.846725,255.943436,15.000000,28.710173,77.206419,5.000000,284.414062,1.640000,194.814209
462463456.239046,-1.378067,0.842606,-0.083984,-1.643738,-0.128203,0.661204,-0.989156,0.127852,0.072279,-0.450495,0.708147,-0.154050,-1.939988,0.746751,2.667557,254.113922,255.210632,15.000000,28.710173,77.206419,5.000000,284.414062,1.640000,194.814209
